{
  "locations": [
    {
      "name": "Brisbane Airport",
      "type": "airport",
      "coordinates": {
        "lat": -27.3840451,
        "lng": 153.1168828
      },
      "description": "å¸ƒé‡Œæ–¯æœ¬æ©Ÿå ´ - Day 1æŠµé” / Day 15é›¢é–‹",
      "icon": "âœˆï¸"
    },
    {
      "name": "Swiss-Belhotel Brisbane",
      "type": "accommodation",
      "coordinates": {
        "lat": -27.4843968,
        "lng": 153.0361534
      },
      "description": "ä¸»è¦ä½å®¿é£¯åº— - Day 1-5ä½å®¿",
      "icon": "ğŸ¨"
    },
    {
      "name": "voco Brisbane City Centre",
      "type": "accommodation", 
      "coordinates": {
        "lat": -27.4697015,
        "lng": 153.021209
      },
      "description": "å¸‚ä¸­å¿ƒä½å®¿é£¯åº— - Day 13-14ä½å®¿",
      "icon": "ğŸ¨"
    },
    {
      "name": "TAFE Queensland Brisbane",
      "type": "education",
      "coordinates": {
        "lat": -27.4704528,
        "lng": 153.0260341
      },
      "description": "æ•¸ä½åª’é«”åŸ¹è¨“èª²ç¨‹åœ°é» - Day 2-6èª²ç¨‹èˆ‡å·¥ä½œåŠ",
      "icon": "ğŸ“"
    },
    {
      "name": "State Library of Queensland",
      "type": "culture",
      "coordinates": {
        "lat": -27.4711751,
        "lng": 153.0181294
      },
      "description": "æ˜†å£«è˜­å·ç«‹åœ–æ›¸é¤¨ - Day 5å‰µæ–°å¯¦é©—å®¤åƒè¨ª",
      "icon": "ğŸ“š"
    },
    {
      "name": "University of Queensland",
      "type": "education",
      "coordinates": {
        "lat": -27.49814,
        "lng": 153.01108
      },
      "description": "æ˜†å£«è˜­å¤§å­¸ - Day 11-13å‰µæ–°å·¥ä½œåŠèˆ‡VRé«”é©—",
      "icon": "ğŸ“"
    },
    {
      "name": "Mount Coot-tha Botanic Gardens",
      "type": "attraction",
      "coordinates": {
        "lat": -27.4763118,
        "lng": 152.9750264
      },
      "description": "åº«è–©å±±æ¤ç‰©åœ’èˆ‡ç­æœ›å° - Day 14åŸå¸‚æ¢ç´¢",
      "icon": "ğŸŒ²"
    },
    {
      "name": "voco Gold Coast",
      "type": "accommodation",
      "coordinates": {
        "lat": -28.0059884,
        "lng": 153.4286471
      },
      "description": "é»ƒé‡‘æµ·å²¸ä½å®¿é£¯åº— - Day 6-10ä½å®¿",
      "icon": "ğŸ¨"
    },
    {
      "name": "Warner Bros Movie World",
      "type": "entertainment",
      "coordinates": {
        "lat": -27.906957,
        "lng": 153.3131103
      },
      "description": "è¯ç´å…„å¼Ÿé›»å½±ä¸–ç•Œ - Day 9å½±è¦–å·¥ä½œåŠ",
      "icon": "ğŸ¬"
    },
    {
      "name": "HOTA Gold Coast",
      "type": "culture",
      "coordinates": {
        "lat": -28.0014535,
        "lng": 153.4162592
      },
      "description": "é»ƒé‡‘æµ·å²¸è—è¡“ä¸­å¿ƒ - Day 7æ–‡åŒ–æ¢ç´¢",
      "icon": "ğŸ¨"
    }
  ],
  "route": [
    {
      "from": "Brisbane Airport",
      "to": "Swiss-Belhotel Brisbane",
      "day": 1,
      "transport": "å°ˆè»Šæ¥é€"
    },
    {
      "from": "Swiss-Belhotel Brisbane", 
      "to": "voco Gold Coast",
      "day": 7,
      "transport": "å°ˆè»Š"
    },
    {
      "from": "voco Gold Coast",
      "to": "Swiss-Belhotel Brisbane", 
      "day": 11,
      "transport": "å°ˆè»Š"
    },
    {
      "from": "Swiss-Belhotel Brisbane",
      "to": "voco Brisbane City Centre",
      "day": 13,
      "transport": "æ­¥è¡Œ/çŸ­ç¨‹äº¤é€š"
    },
    {
      "from": "voco Brisbane City Centre",
      "to": "Brisbane Airport",
      "day": 15,
      "transport": "å°ˆè»Šé€æ©Ÿ"
    }
  ]
}
